location,start,end,lat,long,country,geo_id
Madison County,185,199,37.7334,-84.2999,us,4299665
Richmond,383,391,37.7479,-84.2947,us,4305974
Richmond,454,462,37.7479,-84.2947,us,4305974
Berea,526,531,37.5687,-84.2963,us,4283974
Irvine,904,910,37.7006,-83.9738,us,4295954
Waco,962,966,37.7426,-84.1441,us,4312500
Kentucky,1002,1010,38.2004,-84.8776,us,6254925
