location,start,end,lat,long,country,geo_id
ST. PARIS,52,61,40.1284,-83.9597,us,5170013
U.S.,426,430,39.76,-98.5,us,6252001
St. Paris,454,463,40.1284,-83.9597,us,5170013
St. Paris,506,515,40.1284,-83.9597,us,5170013
Champaign County,534,550,40.1334,-83.7666,us,5149757
Urbana,701,707,40.1106,-88.2073,us,4914570
Kiser Lake,1304,1314,40.1967,-83.9816,us,5159825
