location,start,end,lat,long,country,geo_id
Cook,352,356,47.8524,-92.6896,us,5021974
Minneapolis,852,863,44.98,-93.2638,us,5037649
Minnesota,1443,1452,46.2502,-94.2506,us,5037779
Minnesota,1729,1738,46.2502,-94.2506,us,5037779
Minnesota,3405,3414,46.2502,-94.2506,us,5037779
Marshall,3549,3557,44.4469,-95.7884,us,5036727
Chisholm,3612,3620,47.4891,-92.8838,us,5021088
Elbow Lake,4417,4427,45.9941,-95.9767,us,5025381
