location,start,end,lat,long,country
Republic of Congo,61,78,-1.44,15.55,cg
Cuvette-Ouest,114,127,-0.86,14.81,cg
Gabon,144,149,-1.0,12.0,ga
Congo,220,225,-1.44,15.55,cg
Etoumbi,310,317,0.01,14.9,cg
Mbomo,322,327,0.41861,14.70278,cg
Uganda,797,803,1.0,32.0,ug
Zaire,940,945,-2.88,23.65,cd
Congo,946,951,-1.44,15.55,cg
