location,class,start,end,lat,long,country,geo_id
United States,Literal,1451,1464,39.76,-98.5,us,6252001
Bambino Gesu Paediatric Hospital,Literal,882,914,41.897503,12.461277,it,
Rome,Literal,918,922,41.89193,12.51133,it,3169070
U.S.,Literal,2051,2055,39.76,-98.5,us,6252001
Alder Hey Children's Hospital,Literal,552,581,53.4205,-2.8968,gb,
England,Literal,629,636,52.16045,-0.70312,gb,6269131
Liverpool,Literal,609,618,53.41058,-2.97794,gb,2644210
LONDON,Mixed,223,229,51.50853,-0.12574,gb,2643743
Britain,Literal,1946,1953,54.75844,-2.69531,gb,2635167
